City_ID,City,Lat,Lng,Max Temp,Humidity,Cloudiness,Wind Speed,Country,Date
0,melekeok village,7.4957,134.6367,303.46,70,75,3.6,PW,1706841808
1,port-aux-francais,-49.35,70.2167,280.52,88,16,8.16,TF,1706841809
2,ushuaia,-54.8,-68.3,280.96,71,0,11.32,AR,1706841677
3,puerto natales,-51.7236,-72.4875,280.92,85,100,1.04,CL,1706841809
4,grytviken,-54.2811,-36.5092,276.09,71,6,4.0,GS,1706841810
5,itaituba,-4.2761,-55.9836,296.87,98,78,1.18,BR,1706841810
6,blackmans bay,-43.0167,147.3167,292.33,42,11,2.24,AU,1706841810
7,wailua homesteads,22.0669,-159.378,298.39,79,100,0.89,US,1706841810
8,wewak,-3.5534,143.6268,302.47,76,95,7.03,PG,1706841811
9,khamis mushait,18.3064,42.7292,286.49,76,0,5.66,SA,1706841811
10,ilulissat,69.2167,-51.1,249.16,70,40,2.06,GL,1706841811
11,invercargill,-46.4,168.35,286.49,74,99,6.26,NZ,1706841812
12,adamstown,-25.066,-130.1015,298.0,88,53,8.76,PN,1706841812
13,la passe,45.5549,-0.8967,284.28,97,99,1.85,FR,1706841812
14,papatowai,-46.5619,169.4708,283.22,91,100,5.42,NZ,1706841812
15,anadyr,64.75,177.4833,257.43,60,20,13.0,RU,1706841813
16,vernon,50.2581,-119.2691,280.54,93,100,0.51,CA,1706841813
17,kovdor,67.5662,30.4758,269.08,86,100,7.48,RU,1706841813
18,banff,51.1762,-115.5698,281.72,65,100,2.06,CA,1706841813
19,yekaterinoslavka,50.3734,129.1139,250.55,90,12,3.37,RU,1706841814
20,bethel,41.3712,-73.414,278.67,77,100,1.31,US,1706841534
21,lihue,21.9789,-159.3672,298.73,80,100,0.0,US,1706841546
22,sandnessjoen,66.0217,12.6316,272.44,99,100,5.14,NO,1706841814
23,bukoba,-1.3317,31.8122,293.46,78,100,2.07,TZ,1706841815
24,iqaluit,63.7506,-68.5145,240.2,67,96,7.15,CA,1706841815
25,keflavik,64.0049,-22.5624,277.52,100,75,3.6,IS,1706841815
26,olonkinbyen,70.9221,-8.7187,265.9,59,20,4.01,SJ,1706841815
27,puerto baquerizo moreno,-0.9,-89.6,298.68,85,66,3.57,EC,1706841816
28,waitangi,-43.9535,-176.5597,292.49,91,100,3.58,NZ,1706841816
29,bilibino,68.0546,166.4372,233.22,92,12,1.87,RU,1706841816
30,harstad,68.799,16.5293,269.9,94,100,8.49,NO,1706841816
31,phan rang-thap cham,11.5667,108.9833,302.47,51,70,3.18,VN,1706841817
32,baishishan,43.5833,127.5667,258.81,74,13,1.7,CN,1706841817
33,puerto ayora,-0.7393,-90.3518,298.68,85,59,3.12,EC,1706841817
34,andergrove,-21.0833,149.1833,306.84,66,22,5.15,AU,1706841817
35,margaret river,-33.95,115.0667,299.73,56,19,4.96,AU,1706841817
36,dauphin,51.1494,-100.0502,271.23,100,100,1.54,CA,1706841818
37,robertsport,6.7533,-11.3686,299.98,82,50,1.11,LR,1706841818
38,vilyuchinsk,52.9306,158.4028,262.3,82,100,2.95,RU,1706841818
39,saipan,15.1355,145.701,301.54,69,40,10.8,MP,1706841818
40,albany,42.6001,-73.9662,275.78,82,100,1.34,US,1706841661
41,el bayadh,33.6832,1.0193,278.5,75,20,1.22,DZ,1706841819
42,ierapetra,35.01,25.7353,283.23,64,2,1.79,GR,1706841819
43,qaqortoq,60.7167,-46.0333,256.38,75,5,6.17,GL,1706841820
44,borogontsy,62.6683,131.1683,242.66,96,100,1.24,RU,1706841820
45,chulakkurgan,43.765,69.1814,264.17,84,26,3.85,KZ,1706841820
46,benghazi,32.1167,20.0667,287.79,58,85,5.25,LY,1706841820
47,iskateley,67.6803,53.1512,270.38,93,96,7.6,RU,1706841821
48,dudinka,69.4058,86.1778,259.64,92,100,11.62,RU,1706841772
49,sur,22.5667,59.5289,296.89,63,1,7.37,OM,1706841821
50,thunder bay,48.4001,-89.3168,268.14,68,0,2.06,CA,1706841713
51,orda,57.1951,56.9091,259.91,97,99,3.31,RU,1706841821
52,machico,32.7,-16.7667,291.0,73,40,3.6,PT,1706841734
53,haeju,38.0406,125.7147,273.42,60,23,2.08,KP,1706841822
54,adzope,6.1069,-3.8619,296.7,93,39,0.48,CI,1706841822
55,st. john's,47.5649,-52.7093,270.81,75,100,2.06,CA,1706841591
56,santana,-0.0583,-51.1817,300.25,78,40,3.09,BR,1706841822
57,lockhart,28.6194,-81.4426,287.64,84,0,3.09,US,1706841823
58,ribeira grande,38.5167,-28.7,290.25,90,99,4.92,PT,1706841823
59,yellowknife,62.456,-114.3525,260.6,95,100,3.6,CA,1706841629
60,newport,51.5877,-2.9984,282.66,94,100,5.73,GB,1706841707
61,mar del plata,-38.0023,-57.5575,297.56,71,0,2.24,AR,1706841824
62,ullal,12.8,74.85,296.68,83,44,1.54,IN,1706841824
63,huancavelica,-12.7667,-74.9833,278.06,97,96,1.75,PE,1706841824
64,saint-paul,-21.0096,55.2707,298.21,86,36,2.15,RE,1706841825
65,san antonio de pale,-1.4014,5.6325,301.22,72,98,1.99,GQ,1706841825
66,college,64.8569,-147.8028,238.65,69,100,0.0,US,1706841672
67,mugia,43.1041,-9.2179,283.66,85,64,7.0,ES,1706841826
68,castillos,-34.1667,-53.8333,292.44,92,0,2.95,UY,1706841826
69,atafu village,-8.5421,-172.5159,301.72,75,99,8.21,TK,1706841826
70,vanimo,-2.6741,141.3028,301.89,75,100,4.0,PG,1706841826
71,pemangkat,1.1667,108.9667,301.22,77,75,1.77,ID,1706841827
72,avarua,-21.2078,-159.775,303.18,79,40,2.06,CK,1706841827
73,dehloran,32.6941,47.2679,281.11,83,93,5.85,IR,1706841827
74,greymouth,-42.4667,171.2,286.81,87,100,5.35,NZ,1706841827
75,rongelap,11.1635,166.8941,299.35,86,93,11.45,MH,1706841828
76,ust'-ilimsk,58.0006,102.6619,249.76,91,31,0.73,RU,1706841828
77,ebon,4.582,168.6964,301.56,79,100,6.82,MH,1706841828
78,lazaro cardenas,17.9583,-102.2,298.3,82,24,1.02,MX,1706841828
79,talnakh,69.4865,88.3972,259.38,89,100,8.1,RU,1706841829
80,esmeralda,21.8525,-78.1169,290.95,70,31,3.15,CU,1706841829
81,labytnangi,66.6572,66.4183,259.43,96,100,1.69,RU,1706841829
82,sarangani,5.4033,125.4636,300.34,82,100,9.06,PH,1706841829
83,berdigestyakh,62.0989,126.6992,247.64,98,100,3.03,RU,1706841829
84,pamandzi,-12.7967,45.2794,301.03,78,0,3.6,YT,1706841830
85,georgetown,5.4112,100.3354,303.12,78,20,2.57,MY,1706841749
86,gustrow,53.7972,12.1734,278.15,93,100,4.12,DE,1706841830
87,fale old settlement,-9.3852,-171.2468,302.32,76,100,7.55,TK,1706841831
88,qina,26.1642,32.7267,281.53,63,1,2.02,EG,1706841831
89,vadso,70.0744,29.7487,272.24,93,40,14.92,NO,1706841831
90,akureyri,65.6835,-18.0878,275.11,87,100,1.03,IS,1706841832
91,bamboo flat,11.7,92.7167,300.2,89,40,2.57,IN,1706841832
92,longyearbyen,78.2186,15.6401,264.06,73,75,4.12,SJ,1706841832
93,aasiaat,68.7098,-52.8699,244.96,99,100,1.39,GL,1706841832
94,caleta de carquin,-11.0925,-77.6267,296.68,85,100,2.81,PE,1706841832
95,salto,-31.3833,-57.9667,297.87,51,0,2.25,UY,1706841639
96,isafjordur,66.0755,-23.124,274.87,95,100,2.53,IS,1706841833
97,selfoss,63.9331,-20.9971,277.51,98,100,0.54,IS,1706841833
98,udachny,66.4167,112.4,243.86,90,45,1.55,RU,1706841833
99,rio segundo,-31.6526,-63.9099,296.96,38,0,4.53,AR,1706841834
100,kargasok,59.0556,80.8572,255.91,98,55,2.24,RU,1706841834
101,richmond,37.5538,-77.4603,281.56,75,75,3.6,US,1706841706
102,edinburgh of the seven seas,-37.0676,-12.3116,292.15,96,98,7.69,SH,1706841834
103,tralee,52.2704,-9.7026,284.87,91,100,5.04,IE,1706841835
104,holualoa,19.6228,-155.9522,298.58,74,40,3.6,US,1706841835
105,knyaze-volkonskoye,48.4642,135.4567,254.34,88,44,1.79,RU,1706841835
106,syktyvkar,61.6764,50.8099,268.1,92,100,5.0,RU,1706841835
107,remire-montjoly,4.9167,-52.2667,297.17,94,20,0.0,GF,1706841836
108,bria,6.5423,21.9863,292.64,26,54,1.76,CF,1706841836
109,whitehorse,60.7161,-135.0538,256.58,54,100,5.14,CA,1706841836
110,hermanus,-34.4187,19.2345,295.82,95,11,2.9,ZA,1706841836
111,lerwick,60.1545,-1.1494,282.15,94,100,15.93,GB,1706841837
112,ambon,-3.6954,128.1814,305.23,66,40,3.09,ID,1706841616
113,port alfred,-33.5906,26.891,293.25,97,60,7.09,ZA,1706841837
114,tisul',55.7611,88.3122,257.23,98,65,1.8,RU,1706841837
115,howrah,22.5892,88.3103,294.15,88,40,0.0,IN,1706841838
116,port lincoln,-34.7333,135.8667,294.26,67,46,4.41,AU,1706841838
117,kodiak,57.79,-152.4072,269.88,46,0,3.09,US,1706841838
118,stanley,54.868,-1.6985,282.33,84,20,10.29,GB,1706841774
119,tsiombe,-25.3,45.4833,296.0,79,98,6.7,MG,1706841839
120,enewetak,11.3474,162.3373,299.78,83,59,10.82,MH,1706841839
121,coahuayana de hidalgo,18.7,-103.6583,296.32,90,1,0.8,MX,1706841839
122,bredasdorp,-34.5322,20.0403,293.34,98,19,2.69,ZA,1706841839
123,ta`u,-14.2336,-169.5144,301.54,78,99,4.62,AS,1706841840
124,rio grande,-32.035,-52.0986,295.31,83,0,5.59,BR,1706841753
125,miri,4.4148,114.0089,302.23,79,40,3.6,MY,1706841840
126,bastrop,32.7562,-91.8724,287.97,67,0,0.0,US,1706841746
127,jamestown,42.097,-79.2353,276.22,100,100,1.54,US,1706841841
128,puerto lempira,15.2667,-83.7667,297.48,62,99,4.23,HN,1706841841
129,port elizabeth,-33.918,25.5701,294.32,96,100,3.09,ZA,1706841841
130,hawaiian paradise park,19.5933,-154.9731,300.3,73,100,4.12,US,1706841842
131,afaahiti,-17.75,-149.2833,302.08,78,30,5.72,PF,1706841842
132,vorgashor,67.5833,63.95,263.76,83,100,3.49,RU,1706841842
133,illizi,26.4833,8.4667,279.04,36,0,3.65,DZ,1706841843
134,hithadhoo,-0.6,73.0833,301.08,75,31,5.41,MV,1706841843
135,punta arenas,-53.15,-70.9167,283.21,53,75,5.66,CL,1706841719
136,tual,-5.6667,132.75,301.88,78,74,7.45,ID,1706841843
137,mogocha,53.7333,119.7667,255.17,70,53,1.01,RU,1706841844
138,nelson bay,-32.7167,152.15,302.64,79,0,5.36,AU,1706841844
139,flying fish cove,-10.4217,105.6791,300.97,78,40,3.6,CX,1706841844
140,patterson,37.4716,-121.1297,286.36,81,28,1.24,US,1706841844
141,santo antonio do ica,-3.1022,-67.9397,297.08,99,100,1.32,BR,1706841845
142,tadine,-21.55,167.8833,301.34,73,100,4.33,NC,1706841845
143,yemel'yanovo,56.1681,92.6767,255.6,85,40,0.0,RU,1706841845
144,bastia,42.6667,9.3333,283.32,83,0,2.57,FR,1706841845
145,tura,25.5198,90.2201,292.52,54,31,1.35,IN,1706841846
146,suva,-18.1416,178.4415,303.86,70,40,2.57,FJ,1706841846
147,port mathurin,-19.6833,63.4167,300.56,81,29,11.71,MU,1706841846
148,west island,-12.1568,96.8225,301.14,83,100,4.12,CC,1706841846
149,orta,40.6242,33.1093,270.38,65,1,1.22,TR,1706841847
150,petropavlovsk-kamchatsky,53.0452,158.6483,261.48,57,75,5.0,RU,1706841847
151,tegueste,28.5167,-16.3167,290.42,66,0,3.58,ES,1706841847
152,katsina-ala,7.1667,9.2833,295.01,28,40,2.82,NG,1706841848
153,tobruk,32.0836,23.9764,285.37,63,96,6.11,LY,1706841848
154,punta del este,-34.9667,-54.95,298.21,75,0,3.6,UY,1706841848
155,virginia,37.5481,-77.4467,281.62,75,75,3.6,US,1706841849
156,antofagasta,-23.65,-70.4,294.75,80,29,1.43,CL,1706841849
157,nicoya,10.1483,-85.452,296.88,72,30,3.6,CR,1706841849
158,lebu,-37.6167,-73.65,289.1,97,26,3.64,CL,1706841850
159,cabo san lucas,22.8909,-109.9124,297.76,76,0,6.69,MX,1706841850
160,buka,40.8108,69.1986,272.75,70,16,0.36,UZ,1706841850
161,inhambane,-23.865,35.3833,297.1,85,28,4.3,MZ,1706841850
162,chonchi,-42.6128,-73.8092,290.55,76,100,1.09,CL,1706841851
163,tiksi,71.6872,128.8694,251.4,97,100,2.0,RU,1706841851
164,khandyga,62.6667,135.6,239.05,96,94,1.05,RU,1706841851
165,klyuchi,52.2667,79.1667,265.93,91,100,4.66,RU,1706841852
166,uturoa,-16.7333,-151.4333,300.99,70,100,5.16,PF,1706841852
167,vicuna,-30.0319,-70.7081,287.0,56,0,0.54,CL,1706841852
168,yelabuga,55.7613,52.0649,266.9,96,96,3.29,RU,1706841852
169,ribeira brava,32.65,-17.0667,291.0,29,15,4.01,PT,1706841853
170,mont-tremblant,46.1949,-74.6264,273.35,100,100,0.51,CA,1706841584
171,quellon,-43.1167,-73.6167,288.22,88,100,2.07,CL,1706841853
172,nuevo ideal,24.8875,-105.0728,284.23,55,0,3.16,MX,1706841853
173,asaita,11.5636,41.4394,297.97,72,88,1.38,ET,1706841854
174,hornell,42.3279,-77.6611,277.09,99,100,1.64,US,1706841696
175,glendive,47.1053,-104.7125,279.94,70,0,1.54,US,1706841854
176,aykhal,66.0,111.5,247.44,72,60,3.17,RU,1706841854
177,kyren,51.6828,102.1408,257.01,79,30,1.79,RU,1706841855
178,haiku-pauwela,20.9219,-156.3051,298.16,78,75,4.12,US,1706841855
179,minas de marcona,-15.2119,-75.1103,292.83,76,94,2.57,PE,1706841855
180,badarpur,24.9,92.6,292.7,70,22,1.66,IN,1706841855
181,vila franca do campo,37.7167,-25.4333,291.42,99,39,4.05,PT,1706841856
182,tobelo,1.7284,128.0095,301.35,79,97,3.11,ID,1706841856
183,matoury,4.8483,-52.3317,297.13,94,20,0.0,GF,1706841856
184,mana,5.6592,-53.7767,297.58,80,100,3.87,GF,1706841856
185,nouadhibou,20.931,-17.0347,293.14,42,0,4.63,MR,1706841857
186,sitka,57.0531,-135.33,274.09,60,100,5.66,US,1706841857
187,cooma,-36.2333,149.1333,301.45,19,0,4.56,AU,1706841857
188,tazacorte,28.629,-17.9293,293.23,36,0,4.92,ES,1706841857
189,hami,42.8,93.45,269.34,51,4,1.22,CN,1706841858
190,cockburn town,21.4612,-71.1419,296.51,58,66,6.26,TC,1706841858
191,wazirabad,32.4458,74.1159,280.4,79,0,1.85,PK,1706841858
192,colonia,50.9333,6.95,279.2,83,0,1.03,DE,1706841739
193,utrik,11.2278,169.8474,299.21,87,48,11.09,MH,1706841859
194,tamanrasset,22.785,5.5228,282.1,20,0,2.06,DZ,1706841859
195,amga,60.8953,131.9608,243.92,95,96,1.3,RU,1706841859
196,zeya,53.75,127.2667,252.86,74,43,0.84,RU,1706841860
197,neryungri,56.6709,124.6491,247.71,97,97,1.47,RU,1706841860
198,ola,59.5833,151.2833,249.78,82,17,2.58,RU,1706841860
199,new glasgow,45.5834,-62.6486,273.59,93,100,3.06,CA,1706841860
200,priozersk,61.0393,30.1291,270.98,86,99,7.11,RU,1706841861
201,'ain benian,36.8028,2.9219,278.18,78,8,0.33,DZ,1706841861
202,saint-philippe,-21.3585,55.7679,297.92,85,73,8.19,RE,1706841861
203,naraini,25.1833,80.4833,290.72,46,74,2.58,IN,1706841861
204,west plains,36.7281,-91.8524,285.49,63,99,0.89,US,1706841862
205,ocean city,39.2776,-74.5746,278.77,89,100,1.34,US,1706841814
206,correntina,-13.3433,-44.6367,296.15,83,100,0.7,BR,1706841863
207,salekhard,66.53,66.6019,261.6,93,100,2.54,RU,1706841863
208,ust-nera,64.5667,143.2,246.65,100,100,2.0,RU,1706841863
209,lubango,-14.9172,13.4925,289.07,100,100,1.54,AO,1706841863
210,port-vila,-17.7338,168.3219,303.93,74,75,2.57,VU,1706841864
211,karema,-6.8205,30.4389,294.09,92,100,2.84,TZ,1706841864
212,puerto cabezas,14.0351,-83.3888,294.26,77,53,3.95,NI,1706841864
213,laguna,38.421,-121.4238,285.88,84,0,1.54,US,1706841864
214,plastun,44.7561,136.2939,262.76,48,9,5.02,RU,1706841865
215,banyo,6.75,11.8167,290.87,29,27,1.35,CM,1706841865
216,laguna paiva,-31.3039,-60.6589,300.92,60,0,2.89,AR,1706841865
217,bandarbeyla,9.4942,50.8122,296.54,83,91,2.12,SO,1706841866
218,portland,45.5234,-122.6762,286.12,71,0,1.34,US,1706841495
219,jutai,-5.1833,-68.9,296.0,96,100,1.04,BR,1706841866
220,kapuskasing,49.4169,-82.4331,258.2,78,0,2.57,CA,1706841866
221,bubaque,11.2833,-15.8333,298.67,76,93,3.16,GW,1706841866
222,sittwe,20.15,92.9,295.07,53,0,2.16,MM,1706841867
223,north bend,43.4065,-124.2243,284.74,76,100,5.66,US,1706841867
224,geraldton,-28.7667,114.6,316.38,8,0,6.17,AU,1706841867
225,piti village,13.4626,144.6933,302.64,72,75,8.23,GU,1706841868
226,prince rupert,54.3161,-130.3201,280.2,100,100,1.03,CA,1706841868
227,saudarkrokur,65.7461,-19.6394,274.82,95,100,1.77,IS,1706841869
228,carloforte,39.145,8.3058,286.68,81,100,8.9,IT,1706841869
229,goba,7.0167,39.9833,282.24,63,72,1.85,ET,1706841869
230,zelenogradsk,54.9589,20.4767,277.24,86,0,4.0,RU,1706841851
231,karkira,36.9292,6.5856,283.73,88,94,3.62,DZ,1706841680
232,kattivakkam,13.2167,80.3167,300.2,75,56,2.49,IN,1706841870
233,hamilton,39.1834,-84.5333,283.84,71,0,5.66,US,1706841787
234,tondano,1.3038,124.9112,299.2,71,68,0.61,ID,1706841870
235,pariaman,-0.619,100.12,302.18,72,86,0.89,ID,1706841871
236,otacilio costa,-27.4831,-50.1219,290.71,99,79,1.66,BR,1706841871
237,cuyo,10.8525,121.0086,299.01,85,34,8.85,PH,1706841871
238,mount pearl,47.5166,-52.7813,270.35,75,100,2.06,CA,1706841871
239,pudozh,61.8099,36.5345,271.09,96,100,3.66,RU,1706841872
240,walvis bay,-22.9575,14.5053,291.68,88,100,2.06,NA,1706841872
241,rivne,50.6231,26.2274,274.86,84,94,6.81,UA,1706841872
242,qaisumah,28.3112,46.1273,281.13,61,0,3.6,SA,1706841872
243,znamenka,52.4167,41.4311,271.38,95,100,5.72,RU,1706841873
244,naze,28.3667,129.4833,293.66,86,95,1.77,JP,1706841873
245,manga,11.6636,-1.0731,295.8,23,1,4.02,BF,1706841873
246,boca suno,-0.7167,-77.1333,295.98,97,56,1.18,EC,1706841874
247,olyokminsk,60.3736,120.4264,250.52,96,100,1.4,RU,1706841874
248,prado,-17.3411,-39.2208,297.16,90,8,2.49,BR,1706841874
249,dompu,-8.5356,118.4622,306.18,55,73,1.75,ID,1706841874
250,polyarnyy,69.1989,33.4478,272.16,70,100,11.64,RU,1706841875
251,achinsk,56.2694,90.4993,255.48,95,63,2.24,RU,1706841875
252,thompson,55.7435,-97.8558,264.24,92,100,3.09,CA,1706841737
253,uliastay,47.7417,96.8444,255.98,69,7,2.26,MN,1706841875
254,dunedin,-45.8742,170.5036,282.48,91,73,8.94,NZ,1706841876
255,boryeong,36.3493,126.5977,277.13,62,43,2.67,KR,1706841876
256,new norfolk,-42.7826,147.0587,292.99,37,21,6.37,AU,1706841876
257,den burg,53.0542,4.7972,280.36,84,100,9.26,NL,1706841876
258,pleiku,13.9833,108.0,302.38,43,46,0.35,VN,1706841877
259,cabinda,-5.55,12.2,299.23,94,100,1.03,AO,1706841877
260,fort st. john,56.2499,-120.8529,275.09,80,75,2.06,CA,1706841578
261,general acha,-37.377,-64.6043,306.07,24,84,9.12,AR,1706841878
262,nabire,-3.3667,135.4833,303.32,67,99,2.64,ID,1706841878
263,east london,-33.0153,27.9116,296.13,86,12,6.3,ZA,1706841878
264,byron bay,-28.65,153.6167,306.32,56,25,4.64,AU,1706841878
265,hafnarfjordur,64.0671,-21.9377,277.49,92,100,5.66,IS,1706841878
266,awjilah,29.1081,21.2869,281.93,53,24,0.94,LY,1706841879
267,urengoy,65.9667,78.3667,260.36,92,100,8.02,RU,1706841879
268,preobrazheniye,42.9019,133.9064,266.81,35,6,2.33,RU,1706841879
269,zuya,45.0531,34.3154,276.53,83,100,4.99,UA,1706841880
270,murghob,38.1702,73.9667,251.61,58,3,3.05,TJ,1706841880
271,guarapari,-20.6667,-40.4975,298.65,95,100,2.8,BR,1706841880
272,margate,51.3813,1.3862,278.54,84,39,4.02,GB,1706841775
273,callao,-12.0667,-77.15,300.22,73,0,5.66,PE,1706841881
274,mount isa,-20.7333,139.5,304.02,62,75,6.69,AU,1706841881
275,kununurra,-15.7667,128.7333,309.14,59,76,2.57,AU,1706841881
276,fortaleza,-3.7227,-38.5247,302.22,74,75,4.63,BR,1706841881
277,hassi messaoud,31.6804,6.0729,277.07,65,0,0.51,DZ,1706841882
278,santiago de cao,-7.9589,-79.2392,298.22,83,40,4.12,PE,1706841882
279,lompoc,34.6391,-120.4579,285.81,85,100,4.12,US,1706841882
280,izluchinsk,60.9794,76.9242,254.27,100,89,2.5,RU,1706841882
281,sarkand,45.41,79.9186,268.52,96,99,1.56,KZ,1706841681
282,shanwei,22.782,115.3475,294.89,80,100,3.98,CN,1706841883
283,rio preto da eva,-2.6994,-59.6997,296.63,99,100,1.34,BR,1706841883
284,kalabo,-14.97,22.6814,292.26,91,94,2.03,ZM,1706841884
285,winona,43.9666,-91.7668,278.04,83,0,0.0,US,1706841884
286,queenstown,-31.8976,26.8753,290.28,92,51,0.5,ZA,1706841606
287,casablanca,33.5928,-7.6192,288.89,87,0,0.89,MA,1706841884
288,lycksele,64.5954,18.6735,267.83,73,92,2.06,SE,1706841885
289,lianzhou,24.7811,112.3825,285.11,88,100,1.36,CN,1706841885
290,malango,-2.9627,119.9001,302.39,57,30,1.02,ID,1706841885
291,saint-joseph,-21.3667,55.6167,297.36,84,45,8.4,RE,1706841886
292,lata,40.1629,-8.3327,281.44,76,55,1.85,PT,1706841886
293,south suffolk,36.7171,-76.5902,281.06,90,0,0.45,US,1706841886
294,colby,39.3958,-101.0524,279.84,73,0,0.45,US,1706841886
295,kingston,17.997,-76.7936,297.68,88,40,7.2,JM,1706841775
296,alofi,-19.0595,-169.9187,299.92,81,100,5.68,NU,1706841887
297,nijar,36.9665,-2.206,280.73,81,0,4.12,ES,1706841887
298,vanino,49.0869,140.2543,257.0,61,69,4.51,RU,1706841888
299,novy bydzov,50.2415,15.4908,276.74,85,100,5.18,CZ,1706841888
300,nar'yan-mar,67.6713,53.087,270.43,93,95,7.6,RU,1706841888
301,kerema,-7.9631,145.7785,303.35,65,100,2.31,PG,1706841888
302,seaside,36.6111,-121.8516,285.24,89,100,0.89,US,1706841889
303,west salem,43.8991,-91.0813,278.97,72,0,2.06,US,1706841889
304,al jawf,29.5,38.75,277.83,67,0,2.67,SA,1706841889
305,san blas,21.5167,-105.2667,299.09,84,0,0.98,MX,1706841889
306,itoman,26.1247,127.6694,298.76,78,40,3.09,JP,1706841890
307,bandipura,34.4167,74.65,269.36,81,90,2.02,IN,1706841890
308,at-bashi,41.1702,75.8106,253.79,77,15,1.27,KG,1706841891
309,kailua-kona,19.6406,-155.9956,300.65,74,40,3.6,US,1706841891
310,kavaratti,10.5669,72.642,300.59,65,78,4.82,IN,1706841891
311,mount pleasant,32.7941,-79.8626,283.71,87,75,2.57,US,1706841702
312,tutong,4.8,114.65,302.2,72,84,3.58,BN,1706841891
313,yeed,4.55,43.0333,297.99,72,48,3.82,SO,1706841892
314,cururupu,-1.8283,-44.8683,297.99,96,100,1.65,BR,1706841892
315,palmer,42.1584,-72.3287,276.9,87,100,2.06,US,1706841892
316,polevskoy,56.4422,60.1878,255.53,100,100,1.27,RU,1706841893
317,namtsy,62.7161,129.6658,245.44,93,100,1.73,RU,1706841893
318,umred,20.85,79.3333,293.31,34,76,3.55,IN,1706841893
319,yorkton,51.2167,-102.4677,272.06,93,40,6.17,CA,1706841893
320,damghan,36.1683,54.348,273.98,81,100,2.51,IR,1706841894
321,nemuro,43.3236,145.575,266.62,55,36,5.75,JP,1706841894
322,darovskoy,58.77,47.9564,267.58,96,100,3.84,RU,1706841894
323,bayganin,48.6947,55.8742,270.54,95,100,7.3,KZ,1706841894
324,baxter,46.3433,-94.2867,275.31,77,0,2.06,US,1706841800
325,sahy,48.0741,18.9495,275.4,87,94,3.12,SK,1706841895
326,arteche,12.2645,125.4048,300.21,78,100,4.48,PH,1706841895
327,naha,26.2125,127.6811,298.7,76,40,4.12,JP,1706841895
328,valparaiso,-33.0393,-71.6273,289.95,94,0,2.06,CL,1706841896
329,tubarjal,30.4999,38.216,278.7,58,3,3.75,SA,1706841896
330,volodarskiy,46.4013,48.5409,271.12,84,100,4.64,RU,1706841896
331,al ghayzah,16.2079,52.176,296.55,83,72,4.16,YE,1706841897
332,acapulco de juarez,16.8634,-99.8901,301.05,78,100,2.57,MX,1706841850
333,pemba,-12.974,40.5178,297.36,87,99,3.27,MZ,1706841897
334,tofol,5.3248,163.0078,302.03,89,75,4.63,FM,1706841897
335,kikwit,-5.041,18.8162,294.15,95,100,0.85,CD,1706841898
336,okhotsk,59.3833,143.3,254.52,74,98,4.49,RU,1706841898
337,nianzishan,47.5167,122.8833,257.6,54,0,1.94,CN,1706841898
338,birobidzhan,48.8,132.95,255.95,73,3,0.57,RU,1706841898
339,kirakira,-10.4544,161.9205,303.7,70,84,6.08,SB,1706841899
340,horta,38.5333,-28.6333,289.83,90,97,4.92,PT,1706841899
341,komsomolets,53.7453,62.0708,257.36,98,97,3.32,KZ,1706841899
342,saint-pierre,-21.3393,55.4781,297.97,83,100,9.77,RE,1706841900
343,lucea,18.451,-78.1736,298.07,70,99,4.37,JM,1706841900
344,olinda,-8.0089,-34.8553,301.0,74,40,2.57,BR,1706841749
345,nikolayevsk-on-amure,53.1406,140.73,255.74,83,100,3.48,RU,1706841900
346,multai,21.7667,78.25,292.7,44,22,3.2,IN,1706841901
347,kuliyapitiya,7.4688,80.0401,297.97,87,80,0.95,LK,1706841901
348,bull savanna,17.8868,-77.5902,293.78,81,59,2.81,JM,1706841901
349,glace bay,46.1969,-59.957,271.96,87,100,2.06,CA,1706841902
350,auki,-8.7676,160.7034,302.75,72,84,3.95,SB,1706841902
351,sao luiz gonzaga,-28.4083,-54.9608,293.8,76,0,3.27,BR,1706841903
352,badger,64.8,-147.5333,238.6,69,75,0.0,US,1706841903
353,jayapura,-2.5333,140.7,304.81,74,97,4.36,ID,1706841904
354,hacibektas,38.9408,34.5577,264.92,86,0,2.57,TR,1706841904
355,bikenibeu village,1.3673,173.1241,305.13,79,75,3.6,KI,1706841904
356,ketchikan,55.3422,-131.6461,282.14,93,100,2.06,US,1706841905
357,inyati,-19.6756,28.8469,287.92,84,13,3.79,ZW,1706841905
358,celestun,20.8667,-90.4,294.56,75,100,4.32,MX,1706841905
359,paita,-5.0892,-81.1144,297.62,84,100,5.51,PE,1706841906
360,susuman,62.7833,148.1667,247.03,100,100,0.45,RU,1706841906
361,bantogon,6.5333,124.0333,300.7,79,92,2.44,PH,1706841906
362,betio village,1.358,172.9211,305.17,79,100,7.02,KI,1706841906
363,tolanaro,-25.0319,46.9987,297.19,83,40,7.2,MG,1706841907
364,constantia,44.1833,28.65,273.54,68,72,5.31,RO,1706841845
365,bay roberts,47.5999,-53.2648,271.01,92,86,2.12,CA,1706841907
366,brookings,44.3114,-96.7984,276.15,94,0,5.66,US,1706841719
367,mpika,-11.8343,31.4529,288.94,98,97,1.14,ZM,1706841908
368,mannarakkat,10.9833,76.4667,298.08,65,90,1.3,IN,1706841908
369,mossel bay,-34.1831,22.146,294.11,93,27,3.49,ZA,1706841908
370,feodosiya,45.0333,35.3833,278.32,67,100,0.89,UA,1706841909
371,el granada,37.5027,-122.4694,285.83,88,75,3.09,US,1706841909
372,nova vicosa,-17.8919,-39.3719,297.22,88,14,2.97,BR,1706841910
373,vila velha,-20.3297,-40.2925,299.12,92,40,3.6,BR,1706841910
374,mejit,10.2753,170.8646,299.77,85,100,10.58,MH,1706841910
375,usinsk,65.9939,57.5281,264.86,95,91,7.6,RU,1706841911
376,brisas de zicatela,15.8369,-97.0419,300.44,74,20,2.06,MX,1706841911
377,limbach-oberfrohna,50.8667,12.75,276.52,85,100,4.55,DE,1706841911
378,nyurba,63.2842,118.3319,248.06,98,85,1.88,RU,1706841912
379,popondetta,-8.7537,148.2534,306.45,55,100,2.27,PG,1706841912
380,dakhla,23.6848,-15.958,292.68,40,0,6.16,EH,1706841912
381,wakkanai,45.4094,141.6739,265.14,65,75,9.77,JP,1706841913
382,cidreira,-30.1811,-50.2056,296.29,82,0,5.63,BR,1706841913
383,parabel',58.6978,81.4825,251.99,100,36,1.79,RU,1706841913
384,villanueva,15.3167,-88.0,293.73,94,75,1.54,HN,1706841895
385,mundra,22.85,69.7333,294.28,65,85,2.49,IN,1706841914
386,bel ombre,-4.6167,55.4167,300.06,89,40,2.06,SC,1706841914
387,hotan,37.0997,79.9269,269.46,78,99,1.44,CN,1706841914
388,lorengau,-2.0226,147.2712,302.41,74,96,4.58,PG,1706841915
389,ciudad lazaro cardenas,17.9583,-102.2,298.3,82,24,1.02,MX,1706841915
390,huambo,-12.7761,15.7392,290.04,100,75,0.0,AO,1706841915
391,gadzhiyevo,69.2551,33.3362,271.9,69,100,11.87,RU,1706841916
392,rabo de peixe,37.8,-25.5833,290.92,99,40,6.17,PT,1706841734
393,muttupet,10.4,79.4833,300.19,78,42,2.8,IN,1706841916
394,ceeldheer,3.8488,47.1806,297.98,84,91,4.12,SO,1706841917
395,pahrump,36.2083,-115.9839,282.18,82,100,2.24,US,1706841917
396,paraiso,9.8383,-83.8656,292.68,97,97,1.58,CR,1706841918
397,wotho,10.1657,166.0102,299.74,85,22,11.04,MH,1706841918
398,tselina,46.5338,41.0328,275.97,90,100,6.4,RU,1706841918
399,ghat,24.9647,10.1728,280.97,41,0,1.93,LY,1706841919
400,as saffaniyah,27.9708,48.73,285.57,59,0,6.83,SA,1706841919
401,meadow lakes,61.6247,-149.6011,254.61,79,0,0.0,US,1706841919
402,magadan,59.5667,150.8,249.71,81,9,2.54,RU,1706841919
403,sinjai,-5.1241,120.253,304.28,65,86,2.18,ID,1706841920
404,maragogi,-9.0122,-35.2225,298.89,77,27,3.76,BR,1706841920
405,alta,69.9689,23.2717,269.37,87,75,13.41,NO,1706841920
406,koungou,-12.7336,45.2042,300.99,78,0,3.6,YT,1706841921
407,kalengwa,-13.4659,25.0027,290.1,98,98,1.5,ZM,1706841921
408,concepcion de la sierra,-27.9831,-55.5203,298.51,59,0,2.24,AR,1706841921
409,karratha,-20.7377,116.8463,307.77,48,71,7.06,AU,1706841922
410,wellston,39.1234,-82.5329,281.3,94,100,2.44,US,1706841669
411,luderitz,-26.6481,15.1594,294.11,79,60,3.53,NA,1706841922
412,tangalle,6.024,80.7911,299.24,86,29,3.34,LK,1706841922
413,samraong,12.4526,105.5873,305.26,45,39,1.64,KH,1706841923
414,namsos,64.4662,11.4957,276.18,80,100,4.63,NO,1706841923
415,villamontes,-21.25,-63.5,295.3,91,100,2.42,BO,1706841924
416,kamaishi,39.2667,141.8833,274.99,41,52,2.48,JP,1706841924
417,lubuklinggau,-3.3,102.8667,302.38,67,100,0.73,ID,1706841924
418,sao vicente,-23.9631,-46.3919,298.3,26,24,0.63,BR,1706841924
419,san patricio,28.017,-97.5169,293.06,84,18,4.62,US,1706841925
420,sinabang,2.4803,96.3801,301.12,80,94,2.19,ID,1706841925
421,ancud,-41.8697,-73.8203,287.95,95,100,2.22,CL,1706841925
422,waingapu,-9.6567,120.2641,305.66,55,43,4.76,ID,1706841925
423,colombo,6.9319,79.8478,298.12,82,88,1.86,LK,1706841926
424,broken hill,-31.95,141.4333,302.96,19,0,6.83,AU,1706841926
425,magong,23.5654,119.5863,293.77,90,98,9.93,TW,1706841926
426,armidale,-30.5167,151.65,304.31,30,11,4.7,AU,1706841927
427,salinopolis,-0.6136,-47.3561,298.85,91,96,3.98,BR,1706841927
428,lappeenranta,61.0587,28.1887,271.37,67,100,6.69,FI,1706841927
429,praia da vitoria,38.7333,-27.0667,289.68,100,75,4.08,PT,1706841927
430,port moresby,-9.4431,147.1797,304.83,58,75,10.29,PG,1706841928
431,kirando,-7.4167,30.6,294.54,83,100,1.5,TZ,1706841928
432,timbuktu,16.7735,-3.0074,292.92,14,100,4.62,ML,1706841928
433,ostersund,63.1792,14.6357,271.4,86,20,8.23,SE,1706841929
434,barcelona,41.3888,2.159,286.23,76,0,5.66,ES,1706841829
435,la ronge,55.1001,-105.2842,275.29,75,0,2.06,CA,1706841929
436,ryotsu-minato,38.0833,138.4333,276.03,55,100,2.34,JP,1706841930
437,pacific grove,36.6177,-121.9166,284.97,89,100,0.89,US,1706841660
438,crane,31.3974,-102.3501,290.1,46,11,6.75,US,1706841930
439,karungdong,5.8844,121.263,299.62,83,96,1.16,PH,1706841930
440,abadan,30.3392,48.3043,283.12,81,6,5.14,IR,1706841931
441,tebingtinggi,3.3285,99.1625,302.9,67,95,0.49,ID,1706841931
442,nizhnevartovsk,60.9344,76.5531,254.27,92,0,1.0,RU,1706841931
443,pisco,-13.7,-76.2167,297.18,78,0,5.66,PE,1706841931
444,oye-plage,50.9771,2.0428,280.36,82,44,7.8,FR,1706841932
445,lodwar,3.1191,35.5973,300.75,44,100,2.51,KE,1706841932
446,ashta,23.0167,76.7167,292.55,45,68,1.76,IN,1706841932
447,hadibu,12.65,54.0333,296.63,81,37,1.19,YE,1706841933
448,bonoua,5.2741,-3.595,300.94,90,52,0.75,CI,1706841933
449,kerikeri,-35.2268,173.9474,299.21,67,87,0.45,NZ,1706841933
450,frydek-mistek,49.6833,18.35,276.72,84,100,4.12,CZ,1706841933
451,totness,5.8833,-56.3167,298.03,81,99,4.72,SR,1706841934
452,cefalu,38.0386,14.0229,282.36,75,96,1.34,IT,1706841934
453,laojunmiao,39.8333,97.7333,264.72,57,10,4.11,CN,1706841934
454,mahajanga,-15.7167,46.3167,297.16,94,40,1.03,MG,1706841934
455,belyy yar,53.6039,91.3903,248.09,92,85,0.0,RU,1706841935
456,serenje,-13.2325,30.2352,288.45,96,33,1.45,ZM,1706841935
457,chibougamau,49.9168,-74.3659,263.94,92,100,3.6,CA,1706841935
458,kismayo,-0.3582,42.5454,298.64,85,96,4.6,SO,1706841936
459,altamirano,16.8833,-92.15,284.87,96,79,0.85,MX,1706841936
460,trinidad,-14.8333,-64.9,298.94,81,29,1.01,BO,1706841936
461,thames,-37.1333,175.5333,297.06,62,96,6.82,NZ,1706841937
462,williams,52.1415,-122.1445,281.91,76,75,5.66,CA,1706841937
463,rikaze,29.25,88.8833,269.45,37,0,1.94,CN,1706841937
464,kilju,40.9642,129.3278,270.72,53,3,1.29,KP,1706841938
465,bowen,-20.0167,148.2333,302.1,71,98,5.99,AU,1706841938
466,bayanaul,50.7889,75.6956,261.33,83,100,6.94,KZ,1706841938
467,dzhangala,49.2167,50.3333,272.46,96,100,6.43,KZ,1706841938
468,gwoza,11.1036,13.713,290.69,33,59,1.82,NG,1706841939
469,darhan,49.4867,105.9228,249.49,93,38,1.7,MN,1706841939
470,san isidro,-12.1167,-77.05,299.83,73,0,5.66,PE,1706841939
471,santa ana de yacuma,-13.75,-65.4333,301.14,72,59,3.26,BO,1706841939
472,sisophon,13.5859,102.9737,304.86,52,14,2.7,KH,1706841940
473,kimbe,-5.5502,150.1429,301.51,82,98,2.77,PG,1706841940
474,nizhneangarsk,55.7833,109.55,250.64,81,33,0.21,RU,1706841940
475,gilgit,35.9221,74.3087,269.11,71,43,1.46,PK,1706841851
476,coquimbo,-29.9533,-71.3436,291.0,88,0,3.09,CL,1706841940
477,mossendjo,-2.9506,12.7261,294.29,99,100,0.16,CG,1706841941
478,mao,39.8885,4.2658,284.46,100,75,1.54,ES,1706841941
479,skhirate,33.8498,-7.0404,287.77,74,0,0.79,MA,1706841941
480,moree,-29.4667,149.85,309.19,26,8,3.95,AU,1706841942
481,balabac,7.9868,117.0645,301.35,74,78,6.53,PH,1706841942
482,cheremukhovo,60.3484,59.9851,253.13,100,37,1.34,RU,1706841942
483,jaguaruna,-28.615,-49.0256,294.26,84,23,1.26,BR,1706841942
484,eureka,40.8021,-124.1637,283.52,94,100,1.34,US,1706841645
485,kapa'a,22.0752,-159.319,299.14,78,100,0.0,US,1706841943
486,ad dilam,23.9915,47.1627,287.38,35,93,6.12,SA,1706841943
487,tahe,52.3333,124.7333,256.41,68,49,2.38,CN,1706841943
488,puerto deseado,-47.7503,-65.8938,296.15,34,100,5.47,AR,1706841943
489,lieksa,63.3167,30.0167,269.39,93,100,9.75,FI,1706841944
490,usogorsk,63.4106,48.6872,268.52,95,100,4.89,RU,1706841944
491,ormara,25.2088,64.6357,295.79,68,59,1.84,PK,1706841944
492,diego de almagro,-26.3667,-70.05,293.53,59,0,0.82,CL,1706841944
493,bobo-dioulasso,11.1771,-4.2979,296.4,23,100,3.09,BF,1706841945
494,kemi,65.8596,24.8228,271.02,54,0,7.2,FI,1706841945
495,klaksvik,62.2266,-6.589,282.66,93,100,15.4,FO,1706841945
496,egilsstadir,65.2653,-14.3948,273.1,86,100,1.54,IS,1706841945
497,hiratacho,35.4333,132.8167,280.16,57,20,4.12,JP,1706841946
498,talata mafara,12.5732,6.0597,293.04,15,7,5.46,NG,1706841946
499,sampit,-2.5333,112.95,302.74,77,88,0.9,ID,1706841946
500,mondlo,-27.983,30.7177,290.96,69,99,1.57,ZA,1706841946
501,necochea,-38.5473,-58.7368,297.58,59,99,5.68,AR,1706841947
502,port saint john's,-31.6229,29.5448,295.84,89,100,5.43,ZA,1706841947
503,pangody,65.85,74.4859,261.58,92,100,7.93,RU,1706841947
504,mudanya,40.3753,28.8822,276.92,83,5,1.56,TR,1706841948
505,monticello,45.3055,-93.7941,276.8,84,40,3.6,US,1706841849
506,sao felix do xingu,-6.6447,-51.995,296.24,99,100,1.21,BR,1706841948
507,stjordalshalsen,63.4681,10.9262,275.15,69,75,8.23,NO,1706841948
508,alnwick,55.4132,-1.7056,283.2,81,100,11.83,GB,1706841949
509,vilyuysk,63.7553,121.6247,246.48,99,97,2.24,RU,1706841949
510,tindouf,27.6711,-8.1474,283.4,29,0,2.57,DZ,1706841949
511,yeppoon,-23.1333,150.7333,305.03,59,3,4.82,AU,1706841949
512,idri,27.5,13.2667,278.04,55,0,1.01,LY,1706841950
513,los osos,35.3111,-120.8324,286.31,87,0,2.06,US,1706841950
514,kone,-21.0595,164.8658,297.56,94,100,2.24,NC,1706841950
515,semnan,35.5729,53.3971,275.71,73,100,3.91,IR,1706841950
516,castellet,41.2628,1.6337,285.82,82,42,2.68,ES,1706841951
517,marumori,37.9167,140.7667,281.43,41,86,2.02,JP,1706841951
518,toba,34.4833,136.85,279.31,58,60,3.58,JP,1706841951
519,labrador city,52.9463,-66.9114,239.1,68,0,1.54,CA,1706841951
520,port-gentil,-0.7193,8.7815,301.18,75,99,2.56,GA,1706841952
521,hilo,19.7297,-155.09,300.42,79,100,4.12,US,1706841904
522,fairbanks,64.8378,-147.7164,238.66,69,75,0.0,US,1706841714
523,nova sintra,14.8667,-24.7167,294.58,68,27,5.36,CV,1706841952
524,kosan,38.8558,127.4181,273.3,78,86,0.36,KP,1706841953
525,great falls,47.5002,-111.3008,285.6,50,0,4.63,US,1706841721
526,gumdag,39.2061,54.5906,274.87,73,19,5.53,TM,1706841953
527,argo,37.6333,22.7333,278.58,50,11,1.51,GR,1706841953
528,northam,51.0333,-4.2167,284.07,97,100,6.65,GB,1706841953
529,ruteng,-8.6136,120.4721,299.09,54,59,1.46,ID,1706841954
530,ad dabbah,18.05,30.95,282.55,33,0,4.08,SD,1706841954
531,san luis,-33.295,-66.3356,301.04,35,0,6.09,AR,1706841699
532,flekkefjord,58.2971,6.6607,279.23,98,100,4.72,NO,1706841954
533,guerrero negro,27.9769,-114.0611,291.08,71,43,7.78,MX,1706841955
534,chegdomyn,51.1167,133.0167,249.16,83,19,0.77,RU,1706841955
535,al burayqah,30.4062,19.5739,288.06,57,97,4.59,LY,1706841955
536,carnarvon,-24.8667,113.6333,302.69,60,20,5.16,AU,1706841955
537,shannon,52.7039,-8.8642,284.34,87,75,3.6,IE,1706841956
538,baruun-urt,46.6806,113.2792,252.14,86,25,0.13,MN,1706841956
539,kotido,2.9806,34.1331,295.34,50,93,2.65,UG,1706841956
540,carletonville,-26.3609,27.3977,286.42,74,15,4.28,ZA,1706841956
541,ponta delgada,37.7333,-25.6667,291.59,88,20,5.14,PT,1706841957
542,ungsang-nodongjagu,42.3578,130.4622,267.57,30,7,1.43,KP,1706841957
543,gidam,18.9833,81.4,296.32,56,5,0.73,IN,1706841957
544,ulladulla,-35.35,150.4667,306.91,67,38,5.24,AU,1706841958
545,santa cruz,-17.8,-63.1667,295.85,100,75,2.06,BO,1706841903
546,richards bay,-28.783,32.0377,293.97,93,5,2.09,ZA,1706841958
547,marsabit,2.3284,37.9899,292.29,67,100,5.68,KE,1706841958
548,raduzhny,62.0961,77.475,253.26,100,100,2.49,RU,1706841959
549,mount gambier,-37.8333,140.7667,295.57,35,0,4.31,AU,1706841959
550,colac,-38.3333,143.5833,294.91,34,0,4.81,AU,1706841959
551,sao jose da coroa grande,-8.8978,-35.1478,299.32,75,34,3.92,BR,1706841959
552,petatlan,17.5167,-101.2667,300.04,90,68,1.39,MX,1706841960
553,nizhnesortymskiy,62.4397,71.7603,254.35,99,99,4.45,RU,1706841960
554,codrington,-38.2667,141.9667,292.44,52,0,6.07,AU,1706841960
555,altamont,42.2068,-121.7372,277.26,86,20,1.79,US,1706841960
556,san miguel de cauri,-10.1,-76.5833,281.29,91,100,0.48,PE,1706841961
557,agadez,19.75,10.25,283.56,29,24,5.07,NE,1706841961
558,touros,-5.1989,-35.4608,300.07,75,39,5.35,BR,1706841961
559,kalevala,65.2,31.1667,267.09,90,99,3.58,RU,1706841961
560,kiunga,-6.1219,141.2906,307.05,47,95,2.24,PG,1706841962
561,mishan,45.55,131.8833,257.99,76,2,6.38,CN,1706841962
562,laungowal,30.2167,75.6833,283.39,89,0,1.61,IN,1706841962
563,arkhangel'sk,64.5401,40.5433,273.78,100,100,3.0,RU,1706841963
564,isokyro,63.0117,22.3333,272.06,75,4,5.23,FI,1706841963
565,eraan,9.0629,117.7016,303.71,57,49,2.03,PH,1706841963
566,fangshan,39.6983,115.9925,270.79,44,100,1.24,CN,1706841964
567,yung shue wan,22.2333,114.1167,298.6,83,52,4.82,HK,1706841964
568,nuku'alofa,-21.1333,-175.2,303.34,79,75,1.54,TO,1706841964
569,fortuna,40.5982,-124.1573,283.11,95,40,4.63,US,1706841964
570,bamna,23.0833,74.7667,293.06,50,55,0.27,IN,1706841965
571,lisala,2.15,21.5167,294.98,69,98,0.81,CD,1706841965
572,eydhafushi,5.1033,73.0708,301.03,76,100,5.38,MV,1706841965
573,ylitornio,66.3089,23.6773,267.21,75,100,4.13,FI,1706841966
574,changyon,38.2508,125.0961,272.71,56,5,2.7,KP,1706841966
575,shar'ya,58.3686,45.5144,270.92,95,100,3.58,RU,1706841966
576,springbok,-29.6643,17.8865,297.24,50,3,2.58,ZA,1706841966
577,inverell,-29.7833,151.1167,306.85,46,11,2.24,AU,1706841967
578,les cayes,18.2,-73.75,294.87,83,89,4.4,HT,1706841967
579,swakopmund,-22.6833,14.5333,291.62,90,100,2.08,NA,1706841967
580,wendo,6.6,38.4167,287.82,64,96,1.68,ET,1706841967
581,chingola,-12.529,27.8838,288.91,99,100,1.42,ZM,1706841968
582,ondo,7.1,4.8333,295.43,97,17,0.21,NG,1706841968
583,ascoli satriano,41.2061,15.5615,272.84,85,98,2.22,IT,1706841968
584,belalcazar,2.6547,-75.9928,290.62,96,91,0.51,CO,1706841968
585,berezovyy,51.6667,135.7,257.41,56,63,0.57,RU,1706841969
586,wynyard,-41.0,145.7167,292.37,38,5,7.04,AU,1706841969
587,nova xavantina,-14.6667,-52.35,296.52,91,71,0.76,BR,1706841969
588,maxixe,-23.8597,35.3472,296.47,87,28,3.5,MZ,1706841970
589,yermentau,51.6214,73.1069,260.53,94,97,4.85,KZ,1706841970
